{
	"PARNELL": {
		"name": "Parnell",
		"lat": 53.35095158090792,
		"lng": -6.267523169517517,
		"coordinates": "53.35095158090792, -6.267523169517517"
	},
	"ILAC": {
		"name": "ILAC",
		"lat": 53.35094357569457,
		"lng": -6.264612972736359,
		"coordinates": "53.35094357569457, -6.264612972736359"
	},
	"JERVIS": {
		"name": "Jervis",
		"lat": 53.34794791933253,
		"lng": -6.266136467456818,
		"coordinates": "53.34794791933253, -6.266136467456818"
	},
	"ARNOTTS": {
		"name": "Arnotts",
		"lat": 53.348772506351196,
		"lng": -6.262392103672028,
		"coordinates": "53.348772506351196, -6.262392103672028"
	},
	"MARLBORO": {
		"name": "Marlboro",
		"lat": 53.35244692838869,
		"lng": -6.258516311645508,
		"coordinates": "53.35244692838869, -6.258516311645508"
	},
	"ABBEY": {
		"name": "Abbey",
		"lat": 53.34932489067575,
		"lng": -6.256314218044281,
		"coordinates": "53.34932489067575, -6.256314218044281"
	},
	"THOMASST": {
		"name": "Thomas Street",
		"lat": 53.34385196726141,
		"lng": -6.280317306518555,
		"coordinates": "53.34385196726141, -6.280317306518555"
	},
	"CCHURCH": {
		"name": "Chirstchurch",
		"lat": 53.34267659014163,
		"lng": -6.270017623901367,
		"coordinates": "53.34267659014163, -6.270017623901367"
	},
	"SETANTA": {
		"name": "Setanta",
		"lat": 53.34189191980673,
		"lng": -6.25596821308136,
		"coordinates": "53.34189191980673, -6.25596821308136"
	},
	"DAWSON": {
		"name": "Dawson",
		"lat": 53.34026648532249,
		"lng": -6.256636083126068,
		"coordinates": "53.34026648532249, -6.256636083126068"
	},
	"TRINITY": {
		"name": "Trinity",
		"lat": 53.34375748991657,
		"lng": -6.262553036212921,
		"coordinates": "53.34375748991657, -6.262553036212921"
	},
	"GREENRCS": {
		"name": "Stephens Green RCSI",
		"lat": 53.339640316197325,
		"lng": -6.263425424695015,
		"coordinates": "53.339640316197325, -6.263425424695015"
	},
	"DRURY": {
		"name": "Drury",
		"lat": 53.34291038708197,
		"lng": -6.263129711151123,
		"coordinates": "53.34291038708197, -6.263129711151123"
	},
	"BTHOMAS": {
		"name": "Brown Thomas",
		"lat": 53.342461207579305,
		"lng": -6.260984614491463,
		"coordinates": "53.342461207579305, -6.260984614491463"
	}
}